{
	"status": "ok",
	"photos": [
		{
			"image": "Photo0.jpg",
			"title": "Shawn and Golden Gate",
			"description": "Shawn and the Golden Gate Bridge viewed from the Marin Headlands.",
			"latitude": 37.8281,
			"longitude": -122.4978,
			"date": "2014-11-23 11:46"
		},
		{
			"image": "Photo1.jpg",
			"title": "Shawn and Golden Gate",
			"description": "Shawn and the Golden Gate Bridge viewed from the Marin Headlands.",
			"latitude": 37.828,
			"longitude": -122.4978,
			"date": "2014-11-23 11:53"
		},
		{
			"image": "Photo2.jpg",
			"title": "Santa Cruz at Sunset",
			"description": "Shawn standing on the beach at sunset in Santa Cruz.",
			"latitude": 36.9633,
			"longitude": -122.0154,
			"date": "2014-11-23 17:27"
		},
		{
			"image": "Photo3.jpg",
			"title": "Santa Cruz Boardwalk",
			"description": "Shawn standing under the Santa Cruz Boardwalk sign at night.",
			"latitude": 36.9645,
			"longitude": -122.0177,
			"date": "2014-11-23 18:44"
		},
		{
			"image": "Photo4.jpg",
			"title": "1 Infinite Loop",
			"description": "Shawn standing at the 1 Infinite Loop sign on the Apple campus.",
			"latitude": 37.3316,
			"longitude": -122.0307,
			"date": "2014-11-24 12:17"
		},
		{
			"image": "Photo5.jpg",
			"title": "Skyline Boulevard Mountains",
			"description": "Shawn in front of the mountains viewed from Skyline Boulevard.",
			"latitude": 37.1963,
			"longitude": -122.0409,
			"date": "2014-11-24 12:57"
		},
		{
			"image": "Photo6.jpg",
			"title": "Silicon Valley",
			"description": "Silicon Valley viewed from Skyline Boulevard.",
			"latitude": 37.2316,
			"longitude": -122.0936,
			"date": "2014-11-24 13:19"
		},
		{
			"image": "Photo7.jpg",
			"title": "Rock Climbing",
			"description": "Shawn rock climbing in the mountains along Skyline Boulevard.",
			"latitude": 37.2317,
			"longitude": -122.0936,
			"date": "2014-11-24 13:20"
		},
		{
			"image": "Photo8.jpg",
			"title": "Rock Climbing",
			"description": "Shawn rock climbing in the mountains along Skyline Boulevard.",
			"latitude": 37.2317,
			"longitude": -122.0936,
			"date": "2014-11-24 13:21"
		},
		{
			"image": "Photo9.jpg",
			"title": "Rock Climbing",
			"description": "Shawn rock climbing in the mountains along Skyline Boulevard.",
			"latitude": 37.2283,
			"longitude": -122.0961,
			"date": "2014-11-24 13:52"
		},
		{
			"image": "Photo10.jpg",
			"title": "Rock Climbing",
			"description": "Shawn rock climbing in the mountains along Skyline Boulevard.",
			"latitude": 37.2285,
			"longitude": -122.0961,
			"date": "2014-11-24 13:52"
		},
		{
			"image": "Photo11.jpg",
			"title": "Rock Climbing",
			"description": "Shawn rock climbing in the mountains along Skyline Boulevard.",
			"latitude": 37.2286,
			"longitude": -122.096,
			"date": "2014-11-24 13:54"
		},
		{
			"image": "Photo12.jpg",
			"title": "Fence Line",
			"description": "Shawn and a fence line found while hiking a trail near Skyline Boulevard.",
			"latitude": 37.3085,
			"longitude": -122.1998,
			"date": "2014-11-24 14:42"
		},
		{
			"image": "Photo13.jpg",
			"title": "Interesting Old Tree",
			"description": "Shawn and an interesting old tree found while hiking a trail near Skyline Boulevard.",
			"latitude": 37.3086,
			"longitude": -122.1984,
			"date": "2014-11-24 14:47"
		},
		{
			"image": "Photo14.jpg",
			"title": "Shawn on Sailboat ",
			"description": "Shawn on the Chardonnay II sailboat in the bay at Santa Cruz.",
			"latitude": 36.9338,
			"longitude": -122.035,
			"date": "2014-11-25 16:21"
		},
		{
			"image": "Photo15.jpg",
			"title": "Ocean Cliff",
			"description": "An ocean cliff in Northern California.",
			"latitude": 37.3014,
			"longitude": -122.4059,
			"date": "2014-11-24 16:22"
		},
		{
			"image": "Photo16.jpg",
			"title": "Shawn and Ocean Cliff",
			"description": "Shawn standing on an ocean cliff in Northern California.",
			"latitude": 37.3014,
			"longitude": -122.4059,
			"date": "2014-11-24 16:23"
		},
		{
			"image": "Photo17.jpg",
			"title": "Sean on Beach",
			"description": "Shawn standing on beach in Northern California.",
			"latitude": 37.2997,
			"longitude": -122.4065,
			"date": "2014-11-24 16:32"
		},	
		{
			"image": "Photo18.jpg",
			"title": "Ocean Cliff",
			"description": "Ocean cliff from beach in Northern California.",
			"latitude": 37.2968,
			"longitude": -122.4069,
			"date": "2014-11-24 16:42"
		},
		{
			"image": "Photo19.jpg",
			"title": "Cave Silhouette",
			"description": "Silhouette of Shawn in cave on beach in Northern California.",
			"latitude": 37.2967,
			"longitude": -122.4069,
			"date": "2014-11-24 18:44"
		},	
		{
			"image": "Photo20.jpg",
			"title": "View from Route 1",
			"description": "A view of the Pacific Ocean from Route 1.",
			"latitude": 36.1654,
			"longitude": -121.6707,
			"date": "2014-11-26 14:16"
		},
		{
			"image": "Photo21.jpg",
			"title": "Beach Sunset",
			"description": "A sunset on the beach in Northern California.",
			"latitude": 37.2964,
			"longitude": -122.4069,
			"date": "2014-11-24 16:47"
		},
		{
			"image": "Photo22.jpg",
			"title": "Beach Sunset",
			"description": "Shawn on beach at sunset in Northern California.",
			"latitude": 37.2962,
			"longitude": -122.4069,
			"date": "2014-11-24 16:49"
		},
		{
			"image": "Photo23.jpg",
			"title": "Beach Sunset",
			"description": "Shawn on beach at sunset in Northern California.",
			"latitude": 37.2962,
			"longitude": -122.4069,
			"date": "2014-11-24 16:49"
		},
		{
			"image": "Photo24.jpg",
			"title": "Helicopter Tour",
			"description": "Shawn taking helicopter tour out of Watsonville, CA.",
			"latitude": 36.9097,
			"longitude": -121.798,
			"date": "2014-11-25 11:10"
		},
		{
			"image": "Photo25.jpg",
			"title": "Santa Cruz Lighthouse",
			"description": "Shawn on Chardonnay II sailboat across from lighthouse in Santa Cruz.",
			"latitude": 36.9596,
			"longitude": -122.002,
			"date": "2014-11-25 15:22"
		},
		{
			"image": "Photo26.jpg",
			"title": "Santa Cruz Pier",
			"description": "The Santa Cruz Pier from the Chardonnay II sailboat.",
			"latitude": 36.9568,
			"longitude": -122.0176,
			"date": "2014-11-25 15:37"
		},
		{
			"image": "Photo27.jpg",
			"title": "Ocean View Carmel Highlands",
			"description": "A beautiful view of the Pacific Ocean at the Carmel Highlands.",
			"latitude": 36.5016,
			"longitude": -121.9384,
			"date": "2014-11-26 10:07"
		},
		{
			"image": "Photo28.jpg",
			"title": "Sunset in Santa Cruz",
			"description": "Silhouette of Shawn on beach at sunset in Santa Cruz near lighthouse.",
			"latitude": 36.9628,
			"longitude": -122.0003,
			"date": "2014-11-25 17:16"
		},
		{
			"image": "Photo29.jpg",
			"title": "California Coast",
			"description": "The coastline of Northern California near Rocky Creek Bridge.",
			"latitude": 36.3799,
			"longitude": -121.9021,
			"date": "2014-11-26 10:38"
		},
		{
			"image": "Photo30.jpg",
			"title": "Rocky Creek Bridge",
			"description": "Rocky Creek bridge along Route 1 south of Santa Cruz on way to Big Sur.",
			"latitude": 36.3799,
			"longitude": -121.9021,
			"date": "2014-11-26 10:38"
		},
		{
			"image": "Photo31.jpg",
			"title": "McWay Waterfall Trail",
			"description": "The view from the McWay Waterfall trail.",
			"latitude": 36.16,
			"longitude": -121.6733,
			"date": "2014-11-26 13:09"
		},
		{
			"image": "Photo32.jpg",
			"title": "Ewoldsen Trail",
			"description": "Shawn hiking on the Ewoldsen Trail near McWay Creek.",
			"latitude": 36.161,
			"longitude": -121.6666,
			"date": "2014-11-26 13:27"
		},
		{
			"image": "Photo33.jpg",
			"title": "Ewoldsen Trail",
			"description": "Shawn resting on the Ewoldsen Trail near McWay Creek.",
			"latitude": 36.1681,
			"longitude": -121.6661,
			"date": "2014-11-26 14:00"
		},
		{
			"image": "Photo34.jpg",
			"title": "Ewoldsen Trail Ocean View",
			"description": "Ocean view from near top of the Ewoldsen Trail",
			"latitude": 36.1651,
			"longitude": -121.6705,
			"date": "2014-11-26 14:16"
		},
		{
			"image": "Photo35.jpg",
			"title": "Marin Headlands",
			"description": "Shawn on top of Marin Headlands with ocean view.",
			"latitude": 37.8269,
			"longitude": -122.4999,
			"date": "2014-11-27 11:33"
		},
		{
			"image": "Photo36.jpg",
			"title": "Marin Headlands",
			"description": "Shawn on top of Marin Headlands with inland view.",
			"latitude": 37.8282,
			"longitude": -122.4991,
			"date": "2014-11-27 11:45"
		},
		{
			"image": "Photo37.jpg",
			"title": "Baker Beach",
			"description": "Shawn on Baker Beach in San Francisco with the Golden Gate bridge in the distance.",
			"latitude": 37.7977,
			"longitude": -122.4818,
			"date": "2014-11-27 14:34"
		},
		{
			"image": "Photo38.jpg",
			"title": "Baker Beach",
			"description": "A view of the Golden Gate bridge from Baker Beach.",
			"latitude": 37.7915,
			"longitude": -122.4844,
			"date": "2014-11-27 14:12"
		},
		{
			"image": "Photo39.jpg",
			"title": "San Francisco",
			"description": "A view of San Francisco from Twin Peaks.",
			"latitude": 37.7548,
			"longitude": -122.4462,
			"date": "2014-11-27 15:23"
		}
	]
}